[
  {
    "Name": "ماركت عم جمال",
    "Address": "6 Ebad Al Rahman, Zaarbana WA Al Hamam, El Raml 2, Alexandria Governorate 5447104, Egypt",
    "Lat": 31.2234181,
    "Lon": 29.9718125
  },
  {
    "Name": "أنتيكا كافيه Antika coffee shop",
    "Address": "1 El-Hoda, Hagar an Nawateyah, El Raml 2, Alexandria Governorate 5446110, Egypt",
    "Lat": 31.2205638,
    "Lon": 29.9760112
  },
  {
    "Name": "Market El-Madina",
    "Address": "6XFH+8RP, Elshohada Square Rd, Hagar an Nawateyah, El Raml 2, Alexandria Governorate 5446487, Egypt",
    "Lat": 31.223327,
    "Lon": 29.9795806
  },
  {
    "Name": "بازار لقمة الونش",
    "Address": "58 Mohammed Ali, Hagar an Nawateyah, El Raml 2, Alexandria Governorate 5446463, Egypt",
    "Lat": 31.2215472,
    "Lon": 29.9792931
  },
  {
    "Name": "الإخلاص جمله ماركت",
    "Address": "14 El-Mahmoudeya Canal, Dana Al Gadidah WA Izbat Al Westaneyah, El Raml 2, Alexandria Governorate 5446476, Egypt",
    "Lat": 31.2230789,
    "Lon": 29.9766137
  },
  {
    "Name": "سوبر ماركت مكه",
    "Address": "Al Elaziz Badia, Hagar an Nawateyah, El Raml 2, Alexandria Governorate 5446421, Egypt",
    "Lat": 31.2181253,
    "Lon": 29.9890355
  },
  {
    "Name": "الدهشان ٢ جملة ماركت",
    "Address": "شارع النصر ٢ حي القلعه, Alexandria Governorate, Egypt",
    "Lat": 31.2173549,
    "Lon": 29.9912855
  },
  {
    "Name": "سوبر ماركت نسر البرية",
    "Address": "41 العزيز بديع، حجر النواتية، قسم الرمل،, Alexandria Governorate, Egypt",
    "Lat": 31.217413,
    "Lon": 29.990725
  },
  {
    "Name": "ماركت علم الدين",
    "Address": "أبوغلاب رقم 2، حجر النواتية، قسم الرمل،, Egypt",
    "Lat": 31.2182693,
    "Lon": 29.9914944
  },
  {
    "Name": "البدرى ماركت",
    "Address": "مساكن حجر النواتية(القلعة، بلوك 4, Egypt",
    "Lat": 31.2190358,
    "Lon": 29.9854024
  },
  {
    "Name": "سوبر ماركت المصطفى .الصعيدى",
    "Address": "6X9Q+HW6, Ali Ibn Abi Talib, Hagar an Nawateyah, El Raml 2, Alexandria Governorate 5446423, Egypt",
    "Lat": 31.2189266,
    "Lon": 29.9897249
  },
  {
    "Name": "سوبر ماركت الصفا والمروة",
    "Address": "1 No 9 Omar Ibn Abd Al Aziz (Previous), Khorshid Al Qebleyah, El Raml 2, Alexandria Governorate 5445167, Egypt",
    "Lat": 31.2124881,
    "Lon": 29.9974693
  },
  {
    "Name": "سوبر ماركت البحيري",
    "Address": "6X9R+GV2, Hagar an Nawateyah, El Raml 2, Alexandria Governorate 5446413, Egypt",
    "Lat": 31.2187583,
    "Lon": 29.9921606
  },
  {
    "Name": "سوبر ماركت النصر",
    "Address": "1-9, No 8, As Soyouf Qebli (Include Izbat Derbanah), Third Al Montazah, Alexandria Governorate 5514026, Egypt",
    "Lat": 31.2266216,
    "Lon": 29.9935937
  },
  {
    "Name": "El Taybin Market",
    "Address": "41 13ب، خورشيد القبلية، قسم ثان الرمل، الإسكندرية،, Egypt",
    "Lat": 31.2124786,
    "Lon": 29.994251
  },
  {
    "Name": "سوبر ماركت المصطفى",
    "Address": "المنشأ سكينة الجديد، 19, Alexandria Governorate, Egypt",
    "Lat": 31.2100624,
    "Lon": 29.9961223
  },
  {
    "Name": "سوبر ماركت اولاد الدكش",
    "Address": "6X7X+973، Gamila Abou Hread, Khorshid Al Qebleyah, El Raml 2, Alexandria Governorate 5445171, Egypt",
    "Lat": 31.2134169,
    "Lon": 29.9981868
  },
  {
    "Name": "سوبر ماركت وألبان أولاد ناجي",
    "Address": "شارع ٩ عزبة سكينة الارض الجديدة حي, Al Ramli, Egypt",
    "Lat": 31.2122643,
    "Lon": 29.9972756
  },
  {
    "Name": "سوبر ماركت وألبان أولاد عمارة",
    "Address": "شارع أولاد الغيط متفرع من مدخل ١شرق، ميدان سموحة, Egypt",
    "Lat": 31.20115,
    "Lon": 29.9899799
  },
  {
    "Name": "سوبر ماركت القاضى",
    "Address": "5XXP+HFF، بطل الاسلام، أبيس، قسم الرمل، الإسكندرية،, The Ring Road, Abis, El Raml 2, Alexandria Governorate, Egypt",
    "Lat": 31.1989531,
    "Lon": 29.9861914
  },
  {
    "Name": "العبد ماركت",
    "Address": "6X3M+4WG، عمارة الحاج محمد الساعاتي والحاج عصام الساعاتي، اول مدخل رابعة الناصرية شرق ميدان سموحة،, El Raml 2, Alexandria Governorate, Egypt",
    "Lat": 31.2028184,
    "Lon": 29.9848185
  },
  {
    "Name": "سوبر ماركت اولاد الشيخ",
    "Address": "6X2Q+9RC, The Ring Rd, Abis, El Raml 2, Alexandria Governorate 5440244, Egypt",
    "Lat": 31.2009463,
    "Lon": 29.9895221
  },
  {
    "Name": "الرحاب هايبر ماركت",
    "Address": "Unnamed Road, Alexandria Agriculture Rd, Khorshid Al Qebleyah, El Raml 2, Alexandria Governorate, Egypt",
    "Lat": 31.2056823,
    "Lon": 29.9959128
  },
  {
    "Name": "Elsalam gomla market السلام جمله ماركت",
    "Address": "شارع المدينه المنوره, Abis, Sidi Gaber, Alexandria Governorate 5431123, Egypt",
    "Lat": 31.2079053,
    "Lon": 29.9892528
  },
  {
    "Name": "بيسو ماركت ٢٩٣٦",
    "Address": "6X2R+FHW، سموحة، عزبة سعد، سيدي جابر،، أبيس، قسم الرمل، الإسكندرية،, The Ring Rd, Abis, El Raml 2, Alexandria Governorate 5440272, Egypt",
    "Lat": 31.2011656,
    "Lon": 29.9914624
  },
  {
    "Name": "ماركت علاء",
    "Address": "6252+4C8، شارع عزبة العمال، عزبة سكينة، العوايد، خورشيد القبلية، قسم الرمل، الإسكندرية،, Khorshid - Al Awaed Rd, Khorshid Al Qebleyah, El Raml 2, Alexandria Governorate 5444041, Egypt",
    "Lat": 31.2077791,
    "Lon": 30.00114
  },
  {
    "Name": "سوبر ماركت يوسف",
    "Address": "Gamila Abou Hread, Khorshid Al Qebleyah, El Raml 2, Alexandria Governorate 5444016, Egypt",
    "Lat": 31.2057793,
    "Lon": 29.9992341
  },
  {
    "Name": "العابد هايبر ماركت",
    "Address": "37 Alexandria Agriculture Rd, Toukh City, Tukh, Al Qalyubia Governorate 5444002, Egypt",
    "Lat": 31.2035792,
    "Lon": 29.9998233
  },
  {
    "Name": "Hayat Market",
    "Address": "7 متفرع من بطل الاسلام، الرابعه الناصريه شرق سموحه، قسم الرمل،, Alexandria Governorate 21577, Egypt",
    "Lat": 31.2018245,
    "Lon": 29.9815315
  },
  {
    "Name": "Makkah Market",
    "Address": "أبيس، قسم الرمل،, Abis, El Raml 2, Alexandria Governorate, Egypt",
    "Lat": 31.201959,
    "Lon": 29.9809409
  },
  {
    "Name": "سوبر ماركت أم علي",
    "Address": "6X3M+4Q5, Gamila Abou Hread, Abis, El Raml 2, Alexandria Governorate 5440220, Egypt",
    "Lat": 31.2027637,
    "Lon": 29.9845079
  },
  {
    "Name": "ماركت اولاد ابو على",
    "Address": "The Ring Rd, أبيس،، قسم ثان الرمل،، Alexandria Governorate 5440214, Egypt",
    "Lat": 31.1999911,
    "Lon": 29.9849115
  },
  {
    "Name": "اسلام ماركت",
    "Address": "شارع ٢٠, Zaarbana WA Al Hamam, El Raml 2, Alexandria Governorate 5447133, Egypt",
    "Lat": 31.2264992,
    "Lon": 29.9694487
  },
  {
    "Name": "عبدالله ماركت-Abdalla market",
    "Address": "ش 20،, Zaarbana WA Al Hamam, El Raml 2, Alexandria Governorate, Egypt",
    "Lat": 31.2259657,
    "Lon": 29.9717879
  },
  {
    "Name": "ماركت المبره",
    "Address": "شارع 10متفرع من، ش 20, Alexandria Governorate 21527, Egypt",
    "Lat": 31.2259538,
    "Lon": 29.9682877
  },
  {
    "Name": "3x1 cafe",
    "Address": "6XC8+FXH, شارع قناة المحمودية, Hagar an Nawateyah, El Raml 2, Alexandria Governorate 5446262, Egypt",
    "Lat": 31.2212036,
    "Lon": 29.9674479
  },
  {
    "Name": "البان صلاح الدين",
    "Address": "1 Branched from Maka Al Mokarama, Hagar an Nawateyah, El Raml 2, Alexandria Governorate 5446123, Egypt",
    "Lat": 31.2171803,
    "Lon": 29.9707105
  },
  {
    "Name": "MILANO BAZAR SHOP",
    "Address": "شارع El-Farouk Omar, Hagar an Nawateyah, El Raml 2, Alexandria Governorate 5446253, Egypt",
    "Lat": 31.220125,
    "Lon": 29.9668228
  },
  {
    "Name": "الصافي ماركت",
    "Address": "6X98+R68, Hagar an Nawateyah, El Raml 2, Alexandria Governorate 5446255, Egypt",
    "Lat": 31.2195174,
    "Lon": 29.9656153
  },
  {
    "Name": "Omar",
    "Address": "123-Elmahmodai-albehrai",
    "Lat": 31.185016,
    "Lon": 30.516995
  }
]