[
  {
    "Name": "Ahmed yousry pharmacy",
    "Address": "6X9G+XP8، ميدان الناموس، حجر النواتية، قسم الرمل،, El Raml 2, Alexandria Governorate, Egypt",
    "Lat": 31.2199267,
    "Lon": 29.9768544
  },
  {
    "Name": "صيدلية ابو الخير",
    "Address": "منطقة, Al Namoss Square, Alexandria Governorate, Egypt",
    "Lat": 31.2211466,
    "Lon": 29.97158
  },
  {
    "Name": "صيدلية د. جيهان المسيرى",
    "Address": "6XGH+F86، شارع ترعة المنتزة،، أحمد أبو سليمان, El Raml 2, Alexandria Governorate, Egypt",
    "Lat": 31.2261176,
    "Lon": 29.9783076
  },
  {
    "Name": "صيدليات أبوعقادة-صيدليه د شريف أبوعقادة",
    "Address": "6XC9+CMG، نزلة أبو سعدة، حجر النواتية، قسم الرمل، الإسكندرية،, El Raml 2, Egypt",
    "Lat": 31.2210678,
    "Lon": 29.9692083
  },
  {
    "Name": "صيدلية الشربيني",
    "Address": "6XCH+MX9، شارع النصر، بجوار سوبر ماركت الشربيني، قسم رمل ثاني, El Raml 2, Alexandria Governorate, Egypt",
    "Lat": 31.2216555,
    "Lon": 29.979984
  },
  {
    "Name": "صيدلية د. عبد الكريم",
    "Address": "6XCH+836، شارع بطل الإسلام،, Hagar an Nawateyah، Qesm AR Ramel, Alexandria Governorate 5446464, Egypt",
    "Lat": 31.2207702,
    "Lon": 29.9776175
  },
  {
    "Name": "صيدلية رمادا",
    "Address": "شارع ١٠ عزبة سلام, Al Namoss Square, Egypt",
    "Lat": 31.2250581,
    "Lon": 29.9768189
  },
  {
    "Name": "صيدلية السخاوى",
    "Address": "6XCG+76M, Hagar Al Nawatauea, المواسير، Qesm AR Ramel، Alexandria Governorate 5446110, Egypt",
    "Lat": 31.2207056,
    "Lon": 29.9755425
  },
  {
    "Name": "صيدلية دكتور أنس جابر مديرها د/ محمد الشاذلي",
    "Address": "شارع النصر (شارع المواسير سابقا قبلي, Al Namoss Square, Alexandria Governorate 21500, Egypt",
    "Lat": 31.2212109,
    "Lon": 29.9776115
  },
  {
    "Name": "صيدلية د/ ساندى",
    "Address": "شارع محمود العقاد اول،, Al Namoss Square, Egypt",
    "Lat": 31.2258423,
    "Lon": 29.9751923
  },
  {
    "Name": "صيدلية د / أمانى عاطف الساعى",
    "Address": "6X9Q+J6R، شارع عبد الله بن مسعود، عزبة القلعة العوايد, El-Mahmoudeya Canal, Hagar an Nawateyah, El Raml 2, Alexandria Governorate, Egypt",
    "Lat": 31.2191028,
    "Lon": 29.9880311
  },
  {
    "Name": "صيدلية الدكتورة / الشيماء حجاب",
    "Address": "6X9R+65M, Hagar an Nawateyah, Qesm AR Ramel، Alexandria Governorate 5446422, Egypt",
    "Lat": 31.2180627,
    "Lon": 29.9904586
  },
  {
    "Name": "صيدليه سلمي مصطفي",
    "Address": "6X9R+HG6, Nour El-Islam, Hagar an Nawateyah, El Raml 2, Alexandria Governorate 5446422, Egypt",
    "Lat": 31.2189177,
    "Lon": 29.9912491
  },
  {
    "Name": "صيدلية محمد الجعفراوي",
    "Address": "شارع الإخلاص امام مدرسة نفرتيتي القلعة, Egypt",
    "Lat": 31.2211151,
    "Lon": 29.9869508
  },
  {
    "Name": "Ahmed El Bahnasy Pharmacy",
    "Address": "42 ش صحة دنا، العوايد, El Raml 2, Alexandria Governorate 5448410, Egypt",
    "Lat": 31.2205199,
    "Lon": 29.9916209
  },
  {
    "Name": "صيدلية د/ نادية توفيق",
    "Address": "6X9R+J8P, Hagar an Nawateyah, Qesm AR Ramel، Alexandria Governorate 5446422, Egypt",
    "Lat": 31.2190777,
    "Lon": 29.9908184
  },
  {
    "Name": "صيدلية هلل",
    "Address": "شارع ٩ متفرع من، جميلة بو حريد, Egypt",
    "Lat": 31.2261276,
    "Lon": 29.9938827
  },
  {
    "Name": "صيدلية د. مروه خليل",
    "Address": "6X8R+VXH, Hagar an Nawateyah, El Raml 2, Alexandria Governorate 5446412, Egypt",
    "Lat": 31.2171636,
    "Lon": 29.9924567
  },
  {
    "Name": "صيدليات نور فرع الاحسان",
    "Address": "2 Street 15, Khorshid Al Qebleyah, El Raml 2, Alexandria Governorate 5445210, Egypt",
    "Lat": 31.2112964,
    "Lon": 29.9955728
  },
  {
    "Name": "صيدلية الساعى",
    "Address": "شارع 9،, Alexandria Governorate, Egypt",
    "Lat": 31.2126532,
    "Lon": 29.9963516
  },
  {
    "Name": "صيدليات سمر الجمال",
    "Address": "شارع El-Aziz El-Badei, Hagar an Nawateyah, El Raml 2, Alexandria Governorate 5446412, Egypt",
    "Lat": 31.2172685,
    "Lon": 29.9915229
  },
  {
    "Name": "صيدلية النحاس",
    "Address": "As Soyouf Qebli (Include Izbat Derbanah), Qesm Al Montazah، Alexandria Governorate 5514003, Egypt",
    "Lat": 31.2189258,
    "Lon": 29.9979326
  },
  {
    "Name": "صيدلية د/ إبراهيم الغواص",
    "Address": "شارع 6، عزبة سكينة،, Alexandria Governorate, Egypt",
    "Lat": 31.2130713,
    "Lon": 29.9974662
  },
  {
    "Name": "صيدلية الدكتور أحمد البرهامي/ Dr. Ahmed Elborhamy Pharmacy",
    "Address": "9 جميلة بو حريد،, Khorshid Al Qebleyah, El Raml 2, Alexandria Governorate 5445232, Egypt",
    "Lat": 31.2133818,
    "Lon": 29.9940353
  },
  {
    "Name": "صيدلية دكتور محمود عبدالله",
    "Address": "المنشأ سكينة, Eshak El-Kadeem, Egypt",
    "Lat": 31.2124058,
    "Lon": 29.9956331
  },
  {
    "Name": "صيدلية د. ابراهيم موسى",
    "Address": "6X6W+438، ش السوق، عزبة سكينة، العوايد, El Raml 2, Alexandria Governorate, Egypt",
    "Lat": 31.2102855,
    "Lon": 29.9952124
  },
  {
    "Name": "Elehsan pharmacy",
    "Address": "15 Street 16, Khorshid Al Qebleyah, El Raml 2, Alexandria Governorate 5445210, Egypt",
    "Lat": 31.2114399,
    "Lon": 29.9947314 
  },
  {
    "Name": "صيدلية ابراهيم",
    "Address": "6X6W+RG7، شارع المحاوﻻت, Tolombat at Tabeyah, Montaza 2, Alexandria Governorate 5445212, Egypt",
    "Lat": 31.212014,
    "Lon": 29.9962636
  },
  {
    "Name": "صيدلية د. تامر عبد الحميد",
    "Address": "6X4X+PRG، شارع مسجد الموظفين، عزبه الموظفين، العوايد, El Raml 2, Alexandria Governorate, Egypt",
    "Lat": 31.206865,
    "Lon": 29.999591
  }
]